{"html_attributions": [], "next_page_token": "CrQCIQEAAMd_5iMCrqaTgJY9TMo1AZJZHqwsBKOv_Ir44DfmCm59l6y_AMTnTYV_LfxoQwVSLtUB7JGxjI0sRIVvHAqlP478g0uVLAFjMEHCIG7CrIxo6EEQ0tsq1obIqnLRbkfJYMTxoI-58bd7t_Sl8H_cRhCKX4zJ5OkyGx0ifGOLPBZVc0_gn7WLMXuga5P-pONqEF8FDFiSSrbAfmkfpc0oMcS_M9_iRCVQPipXRxLOzUplc2M89F1ckewxFHMjsacDH1JJSg5ZYVXTHXXYSYFz2iAcpClVzgF499ZYDxrK7uM_k2v3ccSf5O66lD9stLre_GHCrke_ChMUBW49iZrPW1ZgmPK2DUOXj4ldzuDfqUrhU8NGj53NRAQdYxwSc9ghf9MbTJBq4J_7pLx8sZSSKVwSEK0-FfAgTz4sE20BgP7O76IaFDwgWWlFxZ2-j7XeWVLd2fPBAEaY", "results": [{"geometry": {"location": {"lat": 56.01002139999999, "lng": 37.8683012}, "viewport": {"northeast": {"lat": 56.0114132302915, "lng": 37.8695840802915}, "southwest": {"lat": 56.0087152697085, "lng": 37.8668861197085}}}, "icon": "https://maps.gstatic.com/mapfiles/place_api/icons/cafe-71.png", "id": "53b1cb37f74a09065aad5d71f58ba53ac68587d9", "name": "Ti Amo", "opening_hours": {"open_now": true}, "photos": [{"height": 2336, "html_attributions": ["<a href=\"https://maps.google.com/maps/contrib/116398916331398847289\">\u0412\u0438\u043a\u0442\u043e\u0440 \u0411\u0443\u0448\u0443\u0435\u0432</a>"], "photo_reference": "CmRaAAAATtPrB43Vqul71-BBYk4rkcWUL06femGxlvPp57xwIaSA-E86F4g-XwOK8PNXcD5n29yxEAFcAp6qdcoD1DUz2Ox-36kZdAavTX5_KCVtCYlzTA1sS-w6C0r3577JsTsSEhCZZOLtxDaqgZG0COxy6DfbGhTq39pJoaS2CtcwbX7OI2UsrNUVJQ", "width": 4160}], "place_id": "ChIJ-RlEatEutUYRFnDAFlDl5So", "plus_code": {"compound_code": "2V69+28 Pushkino, Moscow Oblast, Russia", "global_code": "9G8V2V69+28"}, "price_level": 2, "rating": 4.3, "reference": "ChIJ-RlEatEutUYRFnDAFlDl5So", "scope": "GOOGLE", "types": ["cafe", "restaurant", "food", "point_of_interest", "establishment"], "user_ratings_total": 97, "vicinity": "Mikrorayon Serebryanka, 48, \u043a.2, Pushkino"}, {"geometry": {"location": {"lat": 56.0128952, "lng": 37.8670902}, "viewport": {"northeast": {"lat": 56.01425123029149, "lng": 37.8685849802915}, "southwest": {"lat": 56.0115532697085, "lng": 37.8658870197085}}}, "icon": "https://maps.gstatic.com/mapfiles/place_api/icons/restaurant-71.png", "id": "d0bb64cdf30e045655987f33b62650bd331b8525", "name": "Teahouse Dastarkhan", "opening_hours": {"open_now": true}, "photos": [{"height": 1440, "html_attributions": ["<a href=\"https://maps.google.com/maps/contrib/113331907962436490339\">\u0418\u0440\u0438\u043d\u0430 \u0421\u0442\u0435\u043f\u0430\u043d\u043e\u0432\u0430</a>"], "photo_reference": "CmRaAAAABkRmnvPXRzbbbRA1GKPSU3RyU8ggB3dEo4l_Gkzpbl6uRsM6vOJLehkvON2ZOfP-iRBSgjIqv-Ed56THjuqEnNABC0HbWcBGH3SWB5-M-T66_YPOUyRsdWJHAKt6eBytEhDmItFMvbhldCbFtS2O9-ZSGhSrZjxRQPwW76Q8DGtwggjdackHCA", "width": 2560}], "place_id": "ChIJiXfFatQutUYR_uYLOXt3juM", "plus_code": {"compound_code": "2V78+5R Pushkino, Moscow Oblast, Russia", "global_code": "9G8V2V78+5R"}, "price_level": 2, "rating": 4.2, "reference": "ChIJiXfFatQutUYR_uYLOXt3juM", "scope": "GOOGLE", "types": ["restaurant", "food", "point_of_interest", "establishment"], "user_ratings_total": 197, "vicinity": "mikrorayon Dzerzhinets, 24, Pushkino"}, {"geometry": {"location": {"lat": 56.0106373, "lng": 37.8577802}, "viewport": {"northeast": {"lat": 56.0120250302915, "lng": 37.85934733029149}, "southwest": {"lat": 56.0093270697085, "lng": 37.85664936970849}}}, "icon": "https://maps.gstatic.com/mapfiles/place_api/icons/restaurant-71.png", "id": "c637ef52ab4416653df1ce71b51408c182406b2d", "name": "Khorosheye Mesto", "opening_hours": {"open_now": true}, "photos": [{"height": 3120, "html_attributions": ["<a href=\"https://maps.google.com/maps/contrib/118018635063584747514\">Anastas\u00eda Bugaga</a>"], "photo_reference": "CmRaAAAAVHgexmZeb1i90AetKMkgizS4UwCUv7vUApB9ABtDMW0oKV3TnvP3IeHuIU3-gEuncHXsD86ySiBV9Yob8phIdrliRnyzzMYxqMbJ_Tl6u8f_G5PhGIPvkeM5-_vCoyFxEhB2TADZG5bjL2_tux4HsJH8GhSbyq285Q-C6hfPBgjGFcmBR0fDxA", "width": 4160}], "place_id": "ChIJf7VRsNcutUYRkNrzihPY3DA", "plus_code": {"compound_code": "2V65+74 Pushkino, Moscow Oblast, Russia", "global_code": "9G8V2V65+74"}, "price_level": 2, "rating": 4.1, "reference": "ChIJf7VRsNcutUYRkNrzihPY3DA", "scope": "GOOGLE", "types": ["restaurant", "food", "point_of_interest", "establishment"], "user_ratings_total": 213, "vicinity": "Mikrorayon Dzerzhinets, 17\u0430, Pushkino"}, {"geometry": {"location": {"lat": 56.0084751, "lng": 37.85198080000001}, "viewport": {"northeast": {"lat": 56.0097878802915, "lng": 37.85327658029151}, "southwest": {"lat": 56.0070899197085, "lng": 37.85057861970851}}}, "icon": "https://maps.gstatic.com/mapfiles/place_api/icons/restaurant-71.png", "id": "c107ff22aaef3366debb77ab920959aaeb65de16", "name": "Teremok", "opening_hours": {"open_now": true}, "photos": [{"height": 5664, "html_attributions": ["<a href=\"https://maps.google.com/maps/contrib/108493235516409441385\">\u0418\u0440\u0438\u043d\u0430 \u0429\u0435\u0440\u0431\u0430\u043a\u043e\u0432\u0430</a>"], "photo_reference": "CmRaAAAAan8Jkjwvic1BI_1gZIhkZfbsrFVCUKNt336x9vcrjKmW9EoK15ARgX-P5RVoSPciLvB_NDLAydCQMmqQmOxRTAjOIEOraDsw9aKh1ecJadoHfiCG9URXSbeyKMH-VAY_EhCZr6gMmK30E83pe8Yh0FigGhRWYaAg-t3VGMC5Za9a9JOYfdTeQg", "width": 4248}], "place_id": "ChIJP8dUE9gutUYRjyHurS91iQA", "plus_code": {"compound_code": "2V52+9Q Pushkino, Moscow Oblast, Russia", "global_code": "9G8V2V52+9Q"}, "price_level": 2, "rating": 4.4, "reference": "ChIJP8dUE9gutUYRjyHurS91iQA", "scope": "GOOGLE", "types": ["restaurant", "food", "point_of_interest", "establishment"], "user_ratings_total": 76, "vicinity": "\u0433. \u041f\u0443\u0448\u043a\u0438\u043d\u043e, \u0443\u043b. \u0427\u0435\u0445\u043e\u0432\u0430, \u0434. 12, \u0422\u041e\u0426 \"\u0412\u0418\u0422, Pushkino"}, {"geometry": {"location": {"lat": 56.008697, "lng": 37.852002}, "viewport": {"northeast": {"lat": 56.0099966302915, "lng": 37.8536255302915}, "southwest": {"lat": 56.0072986697085, "lng": 37.8509275697085}}}, "icon": "https://maps.gstatic.com/mapfiles/place_api/icons/restaurant-71.png", "id": "5ea2ad05e5a0d9374b5a224feeba8b5274f2dd77", "name": "Chinese buffet", "opening_hours": {"open_now": true}, "photos": [{"height": 500, "html_attributions": ["<a href=\"https://maps.google.com/maps/contrib/100441347941103860441\">\u041a\u0438\u0442\u0430\u0439\u0441\u043a\u0438\u0439 \u0431\u0443\u0444\u0435\u0442</a>"], "photo_reference": "CmRaAAAA5JMbq4SHgr8jL4kJhU6JzIxi0XQR4e1LXNJpc1nqBViXkEubkynqAyVZe-XAb6nwYdEew71OQIAxS7gTzX7mh8eYmstolzWDZKNUVYxSMr4El3RB1vLmEccqJdcoZgQBEhCtdxLha-Xn-dLLAQEN7UwiGhTgm2mV0zMdLs6A682ZOz0-yJjvkg", "width": 500}], "place_id": "ChIJH4-sE9gutUYR8la3LRb44V0", "plus_code": {"compound_code": "2V52+FR Pushkino, Moscow Oblast, Russia", "global_code": "9G8V2V52+FR"}, "price_level": 2, "rating": 4.3, "reference": "ChIJH4-sE9gutUYR8la3LRb44V0", "scope": "GOOGLE", "types": ["restaurant", "food", "point_of_interest", "establishment"], "user_ratings_total": 96, "vicinity": "Ulitsa Chekhova, \u0434.12, \u043e\u0444\u0438\u0441 901, Pushkino"}, {"geometry": {"location": {"lat": 56.0034615, "lng": 37.8768783}, "viewport": {"northeast": {"lat": 56.0048110302915, "lng": 37.8783820302915}, "southwest": {"lat": 56.0021130697085, "lng": 37.87568406970851}}}, "icon": "https://maps.gstatic.com/mapfiles/place_api/icons/generic_business-71.png", "id": "b5851f1c201837aaff4c9760a692cca9e53dcd80", "name": "Sushied", "opening_hours": {"open_now": true}, "place_id": "ChIJOz4xAs8utUYR74FESFhSAkc", "plus_code": {"compound_code": "2V3G+9Q Pushkino, Moscow Oblast, Russia", "global_code": "9G8V2V3G+9Q"}, "rating": 4.3, "reference": "ChIJOz4xAs8utUYR74FESFhSAkc", "scope": "GOOGLE", "types": ["restaurant", "food", "point_of_interest", "establishment"], "user_ratings_total": 4, "vicinity": "Yaroslavskoye Shosse, 190, Pushkino"}, {"geometry": {"location": {"lat": 56.0007178, "lng": 37.8593453}, "viewport": {"northeast": {"lat": 56.0020685302915, "lng": 37.8606681802915}, "southwest": {"lat": 55.9993705697085, "lng": 37.8579702197085}}}, "icon": "https://maps.gstatic.com/mapfiles/place_api/icons/restaurant-71.png", "id": "c347c1cd339cb5cbd4fef183923d6233f6c3e8cb", "name": "Yakitoriya", "opening_hours": {"open_now": true}, "photos": [{"height": 620, "html_attributions": ["<a href=\"https://maps.google.com/maps/contrib/100479386383501566093\">\u042e\u043b\u0438\u044f \u041c\u0438\u0445\u0435\u0435\u0432\u0430</a>"], "photo_reference": "CmRaAAAA1wVtPRqRJRYUNmYLGcVA3wqVCXT1kAwVWw7N5u81bdGxC0FNw6TeQJWL4HU6orGiSwNFgwBeNq1I6wX6k-aDBlgOuvw11f1lwlSDxNFxPz13WMLEl5PDu2nfYA9WkMQmEhBPLYrxOwp1MK2aczDuzUQfGhSN3yoA2WwdErW3Vgc7atTh3QhSGg", "width": 815}], "place_id": "ChIJk2xdL8MutUYRbZtZnqNFYsA", "plus_code": {"compound_code": "2V25+7P Pushkino, Moscow Oblast, Russia", "global_code": "9G8V2V25+7P"}, "price_level": 2, "rating": 4.5, "reference": "ChIJk2xdL8MutUYRbZtZnqNFYsA", "scope": "GOOGLE", "types": ["restaurant", "food", "point_of_interest", "establishment"], "user_ratings_total": 370, "vicinity": "Moskovskiy Prospekt, 54\u0410, Pushkino"}, {"geometry": {"location": {"lat": 56.00994069999999, "lng": 37.8476267}, "viewport": {"northeast": {"lat": 56.01139648029149, "lng": 37.8490544802915}, "southwest": {"lat": 56.0086985197085, "lng": 37.84635651970851}}}, "icon": "https://maps.gstatic.com/mapfiles/place_api/icons/restaurant-71.png", "id": "84e9e5fd1c0f38327f7a7e2f801ee7d65ca47ed8", "name": "\u0421\u0443\u0448\u0438 Wok", "opening_hours": {"open_now": true}, "photos": [{"height": 960, "html_attributions": ["<a href=\"https://maps.google.com/maps/contrib/109649375409499548261\">\u0410\u043d\u0430\u0441\u0442\u0430\u0441\u0438\u044f \u0410\u043b\u0435\u043a\u0441\u0430\u043d\u0434\u0440\u043e\u0432\u0430</a>"], "photo_reference": "CmRaAAAAE5uCl6AGoqYIOmKyW5i-vcH1wbbej3DV7Mxe_kKyTWP6gC-0pN3pyRUnYufzgPWHUxfdSFlLrhwbzPtBHg7LK0--gDVE_awFvEO9DM2p_Po7J8psxTHX1gA7h1uUMAkHEhBiZwxesA75KHECDe53yMfvGhQL39CAeFFDdac9R9U00OVL83it9g", "width": 1280}], "place_id": "ChIJdxDvuCcvtUYRz_lMQdMFBro", "plus_code": {"compound_code": "2R5X+X3 Pushkino, Moscow Oblast, Russia", "global_code": "9G8V2R5X+X3"}, "price_level": 2, "rating": 4, "reference": "ChIJdxDvuCcvtUYRz_lMQdMFBro", "scope": "GOOGLE", "types": ["meal_delivery", "meal_takeaway", "restaurant", "food", "point_of_interest", "establishment"], "user_ratings_total": 198, "vicinity": "Moskovskiy Prospekt, 14, Pushkino"}, {"geometry": {"location": {"lat": 56.01056009999999, "lng": 37.8478924}, "viewport": {"northeast": {"lat": 56.01172498029149, "lng": 37.84910568029149}, "southwest": {"lat": 56.0090270197085, "lng": 37.8464077197085}}}, "icon": "https://maps.gstatic.com/mapfiles/place_api/icons/bar-71.png", "id": "d7bd4d3bf3bbd3de93d17d5390d035ee80cdc998", "name": "Jerry's Pub", "opening_hours": {"open_now": true}, "photos": [{"height": 2268, "html_attributions": ["<a href=\"https://maps.google.com/maps/contrib/109753961998775503387\">\u0410\u043b\u0435\u043a\u0441\u0435\u0439 \u041d\u0430\u0441\u043e\u043d\u043e\u0432</a>"], "photo_reference": "CmRaAAAAcMoWz2UbGKQYar7cUhIaxAv9AsFRlD8ERnAdTujz2rNLnxf-PVtBokcq-RbJHjuxLSvXTgsxr7XitqKaCbsmz9nWO4RkC_0-hcGQqtfwg4rmm7YVIo3JH71bCce5mboOEhDO4foPDxx3Sg0Jh4MTgHXtGhQUHmam4cy1YZpSCuBbBS2rWpaRuw", "width": 4032}], "place_id": "ChIJ6Vz0xScvtUYRV6dJlCxz7Ew", "plus_code": {"compound_code": "2R6X+65 Pushkino, Moscow Oblast, Russia", "global_code": "9G8V2R6X+65"}, "price_level": 2, "rating": 4.6, "reference": "ChIJ6Vz0xScvtUYRV6dJlCxz7Ew", "scope": "GOOGLE", "types": ["bar", "restaurant", "food", "point_of_interest", "establishment"], "user_ratings_total": 590, "vicinity": "Moskovskiy Prospekt, 9/2, Pushkino"}, {"geometry": {"location": {"lat": 56.006674, "lng": 37.8458749}, "viewport": {"northeast": {"lat": 56.0081850802915, "lng": 37.8473460302915}, "southwest": {"lat": 56.0054871197085, "lng": 37.84464806970851}}}, "icon": "https://maps.gstatic.com/mapfiles/place_api/icons/generic_business-71.png", "id": "159d061e31f206336efcaab2f431ee6bcaa10d5e", "name": "Dodo Pizza", "opening_hours": {"open_now": true}, "photos": [{"height": 1080, "html_attributions": ["<a href=\"https://maps.google.com/maps/contrib/115798594779967438912\">\u0414\u043e\u0434\u043e \u041f\u0438\u0446\u0446\u0430</a>"], "photo_reference": "CmRaAAAAN3EcRJVwV8UFSlDKvBQ5ECTlbMNC1WrR6s2ya0u6cPUMCb4eY-9bkN9fnORqCvMvsOKd47P4mW_SHJq-VaiHqyGhKvkzlLlebC7ACpE5h3UrYbaqNHSSPaQuoo7Vg2LkEhBoEl8_fft99q6Bd51AJjaxGhQSYds7rmavhajjAHGNvQEYV-4y9w", "width": 1080}], "place_id": "ChIJUZ3sWScvtUYRhXF5ihJ3XGs", "plus_code": {"compound_code": "2R4W+M9 Pushkino, Moscow Oblast, Russia", "global_code": "9G8V2R4W+M9"}, "price_level": 2, "rating": 4.6, "reference": "ChIJUZ3sWScvtUYRhXF5ihJ3XGs", "scope": "GOOGLE", "types": ["meal_delivery", "restaurant", "food", "point_of_interest", "establishment"], "user_ratings_total": 416, "vicinity": "Ulitsa Gor'kogo, 10, Pushkino"}, {"geometry": {"location": {"lat": 56.001074, "lng": 37.84802920000001}, "viewport": {"northeast": {"lat": 56.0023835302915, "lng": 37.8491927802915}, "southwest": {"lat": 55.9996855697085, "lng": 37.8464948197085}}}, "icon": "https://maps.gstatic.com/mapfiles/place_api/icons/lodging-71.png", "id": "9dc8271eceff7729223e0c6ea3007c0d6d66d5f9", "name": "Guest House \"Smirnov\"", "photos": [{"height": 1707, "html_attributions": ["<a href=\"https://maps.google.com/maps/contrib/101560879582187902020\">\u0414\u041c\u0418\u0422\u0420\u0418\u0419 \u0420\u043e\u043c\u0430\u043d\u043e\u0432</a>"], "photo_reference": "CmRaAAAABOEvcElM7E_cKbUg-sO4dFlaC7bR4aOPy-LFivISpORXkJWg99eKZO0E5nvNwUtYY5Jhh6MF2WqCT16GwmkpygBiNeW9VwqPBzjqZz4yFrgOc7r8EPyUT8OysrauCiRpEhAzhVMyNmzR-drmKzUxSSP8GhSNexyMjndKJKWesRntfZRg3enjYQ", "width": 2560}], "place_id": "ChIJA3wZZN4utUYRRkjo6DTBa6w", "plus_code": {"compound_code": "2R2X+C6 Pushkino, Moscow Oblast, Russia", "global_code": "9G8V2R2X+C6"}, "rating": 4.4, "reference": "ChIJA3wZZN4utUYRRkjo6DTBa6w", "scope": "GOOGLE", "types": ["lodging", "restaurant", "food", "point_of_interest", "establishment"], "user_ratings_total": 125, "vicinity": "Krasnoarmeyskaya Ulitsa, 7, Pushkino"}, {"geometry": {"location": {"lat": 56.0037989, "lng": 37.8451373}, "viewport": {"northeast": {"lat": 56.0051188802915, "lng": 37.8465864802915}, "southwest": {"lat": 56.0024209197085, "lng": 37.84388851970851}}}, "icon": "https://maps.gstatic.com/mapfiles/place_api/icons/generic_business-71.png", "id": "0bca5cd097cfe4fce83e39ffe4c8bea5930d397f", "name": "\"Sushi-Rolly\"", "opening_hours": {"open_now": true}, "photos": [{"height": 681, "html_attributions": ["<a href=\"https://maps.google.com/maps/contrib/100695346053199098569\">\u0421\u0443\u0448\u0438- \u0420\u043e\u043b\u043b\u044b</a>"], "photo_reference": "CmRaAAAAANfXNR4mIWREpGPNUGOeOSfgZCT-rwkyFOk9gQN9sBTSet3qd5DJBHx4n-58iDmvq-DWy5WtRWxCK7VlNi4Kio0g6vzja86KGKNYXltFWkzvrXZwwqCNS8gjkPtRGpC8EhDCUK6Owp6ujS3Sl-BS5VXkGhSIvX9ObXDlfy8UGfLpBCHDUzTIaw", "width": 1024}], "place_id": "ChIJt1kHE98utUYRIuxo-uV8rY4", "plus_code": {"compound_code": "2R3W+G3 Pushkino, Moscow Oblast, Russia", "global_code": "9G8V2R3W+G3"}, "rating": 4.2, "reference": "ChIJt1kHE98utUYRIuxo-uV8rY4", "scope": "GOOGLE", "types": ["meal_delivery", "restaurant", "food", "point_of_interest", "establishment"], "user_ratings_total": 27, "vicinity": "Ulitsa Chekhova, 40/7, Pushkino"}, {"geometry": {"location": {"lat": 56.002567, "lng": 37.86126189999999}, "viewport": {"northeast": {"lat": 56.0039644302915, "lng": 37.86256018029149}, "southwest": {"lat": 56.0012664697085, "lng": 37.8598622197085}}}, "icon": "https://maps.gstatic.com/mapfiles/place_api/icons/restaurant-71.png", "id": "a7bd55251bf5ab54e04c9c0ce730b51b25ddb138", "name": "Red Cat", "opening_hours": {"open_now": true}, "place_id": "ChIJ-WFZ3lkwlkYRpG2TbRGfAfc", "plus_code": {"compound_code": "2V36+2G Pushkino, Moscow Oblast, Russia", "global_code": "9G8V2V36+2G"}, "reference": "ChIJ-WFZ3lkwlkYRpG2TbRGfAfc", "scope": "GOOGLE", "types": ["restaurant", "food", "point_of_interest", "establishment"], "vicinity": "Moskovskiy Prospekt, 51, Moscow"}, {"geometry": {"location": {"lat": 55.99524479999999, "lng": 37.8673702}, "viewport": {"northeast": {"lat": 55.9965197802915, "lng": 37.86870168029149}, "southwest": {"lat": 55.9938218197085, "lng": 37.86600371970849}}}, "icon": "https://maps.gstatic.com/mapfiles/place_api/icons/restaurant-71.png", "id": "4b316465457fbe3b321eb8b4a79c5b306fd77eaa", "name": "McDonald's", "opening_hours": {"open_now": true}, "photos": [{"height": 4000, "html_attributions": ["<a href=\"https://maps.google.com/maps/contrib/108098720010580854539\">\u0418\u0440\u0438\u043d\u0430 \u0424\u0438\u043b\u0438\u0447\u0435\u0432\u0430</a>"], "photo_reference": "CmRaAAAACM-35MyI5eIBnY1mDaKioKMZo9bXzw_tylqsZnneBB9tDVDaIa94jn_-0ZFQNmdmq7avAULlEqAKVytmd9L8pTJrr59Na3-m-uxmAH6QhGC-8xWjFmVg9uYOvs3cKqb5EhCBS7Ewi3dxXZahHjI_jczpGhQoM_KS6dYqghRGDffa6R-FBgJrgA", "width": 3000}], "place_id": "ChIJvzX6IVcutUYRma2-Btf1co0", "plus_code": {"compound_code": "XVW8+3W Pushkino, Moscow Oblast, Russia", "global_code": "9G7VXVW8+3W"}, "price_level": 2, "rating": 4.3, "reference": "ChIJvzX6IVcutUYRma2-Btf1co0", "scope": "GOOGLE", "types": ["meal_takeaway", "restaurant", "food", "point_of_interest", "establishment"], "user_ratings_total": 2845, "vicinity": "Pushkinskoye Shosse, 10, Pushkino"}, {"geometry": {"location": {"lat": 55.99943429999999, "lng": 37.8480615}, "viewport": {"northeast": {"lat": 56.0007294802915, "lng": 37.84935618029149}, "southwest": {"lat": 55.9980315197085, "lng": 37.84665821970849}}}, "icon": "https://maps.gstatic.com/mapfiles/place_api/icons/restaurant-71.png", "id": "444fbfcb1050859dc0b6bebbf399770092b0d425", "name": "Restoran-Klub \"Strelets\"", "opening_hours": {"open_now": true}, "photos": [{"height": 4016, "html_attributions": ["<a href=\"https://maps.google.com/maps/contrib/110960665274110248072\">\u0420\u0435\u0441\u0442\u043e\u0440\u0430\u043d-\u043a\u043b\u0443\u0431 &quot;\u0421\u0442\u0440\u0435\u043b\u0435\u0446&quot;</a>"], "photo_reference": "CmRaAAAAZckWUn50-MEEny3lLaiV3xvJLhphTYXRSDqeDxAjdHgri-8mXVdVGr-6A-54O697bxhMIrQtF8ZFHfVzwImG2aAFi3y8XSzyhZtvs44zrDEcD1Lz5kDMnSYXXqCiuSsuEhBfcQnbwkkZV9m4HkdauRRlGhR3uVQf9BI4wu8tqwYXcnuNZNiELQ", "width": 6016}], "place_id": "ChIJy9DUGBUxtUYR-Pxu_3VJk9w", "plus_code": {"compound_code": "XRXX+Q6 Pushkino, Moscow Oblast, Russia", "global_code": "9G7VXRXX+Q6"}, "price_level": 2, "rating": 4.2, "reference": "ChIJy9DUGBUxtUYR-Pxu_3VJk9w", "scope": "GOOGLE", "types": ["restaurant", "night_club", "food", "point_of_interest", "establishment"], "user_ratings_total": 138, "vicinity": "Krasnoarmeyskaya Ulitsa, 16a, Pushkino"}, {"geometry": {"location": {"lat": 56.0106204, "lng": 37.8477562}, "viewport": {"northeast": {"lat": 56.0120496802915, "lng": 37.8491732802915}, "southwest": {"lat": 56.0093517197085, "lng": 37.8464753197085}}}, "icon": "https://maps.gstatic.com/mapfiles/place_api/icons/cafe-71.png", "id": "5be8cb1f5352befbbb37b5803de3bf1622055cb3", "name": "Italian Cafe Piachere (Pushkino)", "opening_hours": {"open_now": true}, "photos": [{"height": 3024, "html_attributions": ["<a href=\"https://maps.google.com/maps/contrib/109753961998775503387\">\u0410\u043b\u0435\u043a\u0441\u0435\u0439 \u041d\u0430\u0441\u043e\u043d\u043e\u0432</a>"], "photo_reference": "CmRaAAAAIXr3IS-rdXMSctemgtPGYRDUEQdy9b_pgh19JY1q7VSkafrI7sUvAUheYyJK2gDpaXsNxnf36jc3SKPyYyJTxx8Cn_TprsiVKLf7nBDFEKQ7Do50bBebQS7u8OZxLWQ7EhBBiLfpqf44zJ-grFMkRo5iGhT2MhG7psfJIQckLCDTx8p2KnbUfw", "width": 4032}], "place_id": "ChIJFx9IzicvtUYRta4kMUgDPM0", "plus_code": {"compound_code": "2R6X+64 Pushkino, Moscow Oblast, Russia", "global_code": "9G8V2R6X+64"}, "price_level": 2, "rating": 4.5, "reference": "ChIJFx9IzicvtUYRta4kMUgDPM0", "scope": "GOOGLE", "types": ["cafe", "restaurant", "food", "point_of_interest", "store", "establishment"], "user_ratings_total": 329, "vicinity": "Moskovskiy Prospekt, 9/2, Pushkino"}, {"geometry": {"location": {"lat": 56.0116546, "lng": 37.8672304}, "viewport": {"northeast": {"lat": 56.01301443029151, "lng": 37.8687042802915}, "southwest": {"lat": 56.01031646970851, "lng": 37.8660063197085}}}, "icon": "https://maps.gstatic.com/mapfiles/place_api/icons/restaurant-71.png", "id": "f45e675a354628db1dee21a48eb08ef66206a0cf", "name": "King-Sushi", "place_id": "ChIJRZiG1iMstUYRePPOVN9ELBY", "plus_code": {"compound_code": "2V68+MV Pushkino, Moscow Oblast, Russia", "global_code": "9G8V2V68+MV"}, "reference": "ChIJRZiG1iMstUYRePPOVN9ELBY", "scope": "GOOGLE", "types": ["restaurant", "food", "point_of_interest", "establishment"], "vicinity": "Ulitsa Dzerzhinskogo, \u0434 11, Ivanteyevka"}, {"geometry": {"location": {"lat": 56.0103143, "lng": 37.8592689}, "viewport": {"northeast": {"lat": 56.0116192802915, "lng": 37.8605336802915}, "southwest": {"lat": 56.0089213197085, "lng": 37.8578357197085}}}, "icon": "https://maps.gstatic.com/mapfiles/place_api/icons/restaurant-71.png", "id": "172c32d86144ac7b48190e40c158211dcc7da61a", "name": "Pekarnya Pitstsa Pala", "place_id": "ChIJxwkTWxcvtUYRQ_gJ4rN2dww", "plus_code": {"compound_code": "2V65+4P Pushkino, Moscow Oblast, Russia", "global_code": "9G8V2V65+4P"}, "reference": "ChIJxwkTWxcvtUYRQ_gJ4rN2dww", "scope": "GOOGLE", "types": ["meal_takeaway", "restaurant", "food", "point_of_interest", "establishment"], "vicinity": "Mikrorayon Dzerzhinets, 1\u0430, Pushkino"}, {"geometry": {"location": {"lat": 56.012404, "lng": 37.8628913}, "viewport": {"northeast": {"lat": 56.0137649802915, "lng": 37.86429243029151}, "southwest": {"lat": 56.0110670197085, "lng": 37.86159446970851}}}, "icon": "https://maps.gstatic.com/mapfiles/place_api/icons/restaurant-71.png", "id": "f24a46a5ff11b59e6876f65a74f2cae4e99f8e8b", "name": "Vpklkh, Stolovaya", "place_id": "ChIJu7m_gNYutUYRpqeLzaWTfqY", "plus_code": {"compound_code": "2V67+X5 Pushkino, Moscow Oblast, Russia", "global_code": "9G8V2V67+X5"}, "reference": "ChIJu7m_gNYutUYRpqeLzaWTfqY", "scope": "GOOGLE", "types": ["restaurant", "food", "point_of_interest", "establishment"], "vicinity": "Ulitsa Institutskaya, 22, Pushkino"}, {"geometry": {"location": {"lat": 56.00937210000001, "lng": 37.8556342}, "viewport": {"northeast": {"lat": 56.0108310302915, "lng": 37.85688733029149}, "southwest": {"lat": 56.0081330697085, "lng": 37.85418936970849}}}, "icon": "https://maps.gstatic.com/mapfiles/place_api/icons/restaurant-71.png", "id": "ead1c24c841ec0acea3ec0b1f90d1220986befec", "name": "Sushi Set Pushkino", "opening_hours": {"open_now": true}, "photos": [{"height": 1200, "html_attributions": ["<a href=\"https://maps.google.com/maps/contrib/113189450821331862984\">\u0421\u0443\u0448\u0438 \u0441\u0435\u0442 \u041f\u0443\u0448\u043a\u0438\u043d\u043e</a>"], "photo_reference": "CmRaAAAA6Gv19xmbt6bD5TtREAFQqK6cz4ELGDdFJrd1XSWh1ACHesPh20MVz_S2xRjgiLqRHA7ArfoQDy8Vtjkk2M96aZptdtD1rcWovY3DMY4lO8ca6jEIehYmXLSWvssEg8zmEhD2nJpx-vpQXjgqAiIxQdyRGhSuiX2sMPUBtXvGDsHQhj7-umh0_w", "width": 1805}], "place_id": "ChIJQ42NDx0vtUYRNPOuxlcmBTU", "plus_code": {"compound_code": "2V54+P7 Pushkino, Moscow Oblast, Russia", "global_code": "9G8V2V54+P7"}, "price_level": 2, "rating": 3.7, "reference": "ChIJQ42NDx0vtUYRNPOuxlcmBTU", "scope": "GOOGLE", "types": ["restaurant", "food", "point_of_interest", "establishment"], "user_ratings_total": 3, "vicinity": "Ulitsa Chekhova, 1 \u043a. 3, Pushkino"}], "status": "OK"}